[{"name":"SIMPANG RUSA","latitude":"-2.9556298","longitude":"107.7143717"},{"name":"DOLOK SAGALA","latitude":"3.2857879","longitude":"99.0207093"},{"name":"TONJONG","latitude":"-7.1752501","longitude":"109.0264937"},{"name":"SANJA","latitude":"12.9927605","longitude":"37.295298"},{"name":"CIBADAK","latitude":"-6.9226316","longitude":"107.5952567"},{"name":"KALONG LIUD","latitude":"-6.5886396","longitude":"106.5500238"},{"name":"SUKARESMI","latitude":"-6.7128243","longitude":"106.9072215"},{"name":"KEDUNGBADAK","latitude":"-6.5642437","longitude":"106.8008746"},{"name":"CILENDEK TIMUR","latitude":"-6.5709223","longitude":"106.7733713"},{"name":"KEDUNGWARINGIN","latitude":"-6.5689895","longitude":"106.783348"},{"name":"NAGRAK","latitude":"-6.7508589","longitude":"107.6663769"},{"name":"BUMI KENCANA","latitude":"-4.9474962","longitude":"105.1632123"},{"name":"SUKASARI","latitude":"-6.1817542","longitude":"106.6354052"},{"name":"BUNAR","latitude":"44.92775665","longitude":"17.999456149074057"},{"name":"PAMAGER SARI","latitude":"-6.4436419","longitude":"106.7318051"},{"name":"PATANI","latitude":"5.2281298","longitude":"6.1921572"},{"name":"GUNUNG BUNDER 2","latitude":"-6.706144","longitude":"106.7055575"},{"name":"PASIR ANGIN","latitude":"-6.691667","longitude":"107.826111"},{"name":"NANGGEWER MEKAR","latitude":"-6.4994306","longitude":"106.8399574"},{"name":"RUMPIN","latitude":"-6.4450886","longitude":"106.6507194"},{"name":"CIPARIGI","latitude":"-6.5431068","longitude":"106.8107235"},{"name":"CILANGKAP","latitude":"-6.3335136","longitude":"106.9092529"},{"name":"BANJAR SARI","latitude":"-3.6906752","longitude":"115.625546"},{"name":"CITEUREUP","latitude":"-6.546294","longitude":"105.6999768"},{"name":"CICADAS","latitude":"-6.9061198","longitude":"107.6376092"},{"name":"PASEBAN","latitude":"-6.1922568","longitude":"106.8525086"},{"name":"LALADON","latitude":"-6.5977179","longitude":"106.7514947"},{"name":"CIARUTEN UDIK","latitude":"-6.6247421","longitude":"106.6772082"},{"name":"PARAKANNYASAG","latitude":"-7.294158","longitude":"108.1984418"},{"name":"PASIR JAMBU","latitude":"-6.5278879","longitude":"106.8178901"},{"name":"BOJONG RANGKAS","latitude":"-6.5788306","longitude":"106.6986064"},{"name":"CIPARI","latitude":"-7.4398575","longitude":"108.7618188"},{"name":"TUTUL","latitude":"-8.2846684","longitude":"113.5186618"},{"name":"PALEDANG","latitude":"-6.9251735","longitude":"107.614934"},{"name":"MEGAMENDUNG","latitude":"-6.6434519","longitude":"106.9446946"},{"name":"PUSPANEGARA","latitude":"-6.4859088","longitude":"106.8800122"},{"name":"KELAPA NUNGGAL","latitude":"-6.4904106","longitude":"106.9476838"},{"name":"PASIRLAJA","latitude":"-6.5505822","longitude":"106.8369329"},{"name":"CIBENING","latitude":"-6.35782","longitude":"107.0719117"},{"name":"CILEBUT TIMUR","latitude":"-6.5254814","longitude":"106.806491"},{"name":"MENTAWA BARU HILIR","latitude":"-2.5523138","longitude":"112.9572582"},{"name":"LESUNG BATANG","latitude":"-2.7483051","longitude":"107.6818924"},{"name":"CURUGMEKAR","latitude":"-6.5555705","longitude":"106.7741664"},{"name":"SUKMAJAYA","latitude":"-6.4054763","longitude":"106.8474466"},{"name":"SENTUL","latitude":"3.1785862","longitude":"101.6955056"},{"name":"KENCANA","latitude":"1.6327669","longitude":"100.6100853"},{"name":"MENTENG","latitude":"-6.1950265","longitude":"106.83222419920054"},{"name":"CIPELANG","latitude":"-6.69852","longitude":"106.7755353"},{"name":"CINANGKA","latitude":"-6.6007943","longitude":"106.7041571"},{"name":"SUMBEREJO","latitude":"-5.20291025","longitude":"105.68528823655637"},{"name":"SINGASARI","latitude":"-7.3419005","longitude":"108.127363"},{"name":"TAMAN RAHAYU","latitude":"-6.3669203","longitude":"107.0390323"},{"name":"KAMPUNG REMPAK","latitude":"0.807127","longitude":"102.0342653"},{"name":"DUREN","latitude":"50.8031684","longitude":"6.4820806"},{"name":"KATULAMPA","latitude":"-6.6229952","longitude":"106.8248669"},{"name":"JABON MEKAR","latitude":"-6.4515228","longitude":"106.7275804"},{"name":"TARIKOLOT","latitude":"-6.7979735","longitude":"108.5010906"},{"name":"KARIMUNJAWA","latitude":"-5.8796265","longitude":"110.4329073"},{"name":"SUKADAMAI","latitude":"0.5310256","longitude":"121.8521541"},{"name":"SUKAMAJU","latitude":"-6.90907","longitude":"107.6338433"},{"name":"HAMBARO","latitude":"-6.5863478","longitude":"106.5636301"},{"name":"SINDANGMULYA","latitude":"-6.4122837","longitude":"107.1010185"},{"name":"CURUG","latitude":"-6.23713985","longitude":"106.56702010021641"},{"name":"KAMAL","latitude":"-7.7715919","longitude":"110.8149716"},{"name":"TAPOS","latitude":"-6.4138928","longitude":"106.502088"},{"name":"KEBONKELAPA","latitude":"-6.5834244","longitude":"106.7730637"},{"name":"CIAWI","latitude":"-7.1586313","longitude":"108.1475296"},{"name":"LENGKONG","latitude":"-7.4508745","longitude":"112.4637693"},{"name":"CIMAHPAR","latitude":"-7.3034525","longitude":"106.6959089"},{"name":"CIJUJUNG","latitude":"-6.5806917","longitude":"106.6558579"},{"name":"CIBEUREUM","latitude":"-7.3660124","longitude":"108.5011723"},{"name":"TEGAL WARU","latitude":"-6.5897508","longitude":"106.7013322"},{"name":"TEGALGUNDIL","latitude":"-6.57981575","longitude":"106.81517383700651"},{"name":"MAULEUM","latitude":"-9.8464894","longitude":"124.5192932"},{"name":"MEKARWANGI","latitude":"-6.9559066","longitude":"107.6046723"},{"name":"TAJUR","latitude":"-1.6307954","longitude":"116.2006157"},{"name":"CICANTAYAN","latitude":"-6.9130402","longitude":"106.8358974"},{"name":"LEUWILIANG","latitude":"-6.5745161","longitude":"106.6343847"},{"name":"CIBINONG","latitude":"-6.48243585","longitude":"106.83832714913994"},{"name":"PABUARAN","latitude":"-6.1814463","longitude":"106.6191739"},{"name":"SUKAHATI","latitude":"-6.4919956","longitude":"106.8190185"},{"name":"ARISAN BUNTAL","latitude":"-3.3681464","longitude":"104.8773072"},{"name":"DURI KOSAMBI","latitude":"-6.1704014","longitude":"106.7201486"},{"name":"GUNUNGBATU","latitude":"-7.0845937","longitude":"109.4635831"},{"name":"BINANGA","latitude":"-2.7219824","longitude":"118.9105534"},{"name":"PEGANGSAAN","latitude":"-6.2019499","longitude":"106.8474914"},{"name":"CIMPAEUN","latitude":"-6.4418101","longitude":"106.8680522"},{"name":"JAYAMUKTI","latitude":"-7.6788722","longitude":"108.2830161"},{"name":"KEBAYORAN LAMA UTARA","latitude":"-6.2448215","longitude":"106.7782383"},{"name":"PURASARI","latitude":"-6.6759902","longitude":"106.6325091"},{"name":"CIAMPEA UDIK","latitude":"-6.619854","longitude":"106.6851093"},{"name":"CIOMAS","latitude":"-7.2188235","longitude":"108.9015858"},{"name":"NANGGEWER","latitude":"-6.7699281","longitude":"108.2964054"},{"name":"JATIMULYA","latitude":"-7.0191539","longitude":"109.1319748"},{"name":"DUREN MEKAR","latitude":"-6.4171443","longitude":"106.7441831"},{"name":"CEMPAKA BARU","latitude":"0.7866324","longitude":"113.1392127"},{"name":"SEUNALOH","latitude":"3.7476838","longitude":"96.8328466"},{"name":"PANCAWATI","latitude":"-6.7076595","longitude":"106.8524669"},{"name":"CIPAYUNG JAYA","latitude":"-6.4325297","longitude":"106.7949432"},{"name":"SAWAHBESAR","latitude":"-6.973","longitude":"110.447"},{"name":"GUNUNG MULYA","latitude":"-1.4427983","longitude":"113.4045554"},{"name":"JOROK","latitude":"-8.5329541","longitude":"117.4383848"},{"name":"HARAPAN JAYA","latitude":"-3.6188047","longitude":"103.8554325"},{"name":"MARGA MULYA","latitude":"-3.6308875","longitude":"104.10653846158598"},{"name":"KAJEN","latitude":"-7.0311327","longitude":"109.5784237"},{"name":"PAGELARAN","latitude":"-7.1137932","longitude":"109.4718831"},{"name":"KEBONPEDES","latitude":"-6.9419483","longitude":"106.9749433"},{"name":"BUBULAK","latitude":"-6.5681181","longitude":"106.7576472"},{"name":"KARANGGAN","latitude":"-2.2454132","longitude":"113.9577803"},{"name":"KAYUMANIS","latitude":"-6.5299456","longitude":"106.774191"},{"name":"KEDAUNG","latitude":"-6.3739012","longitude":"106.7484166"},{"name":"SIDAKATON","latitude":"-6.8887539","longitude":"108.8501792"},{"name":"TANJUNG UMA","latitude":"1.1339891","longitude":"103.999904"},{"name":"LANGENSARI","latitude":"-7.1662578","longitude":"110.4119539"},{"name":"KEDUNGHALANG","latitude":"-6.5524385","longitude":"106.8104366"},{"name":"SUKATANI","latitude":"-6.7473359","longitude":"107.8828247"},{"name":"CIBUNTU","latitude":"-6.920873","longitude":"107.5722372"},{"name":"PASAREAN","latitude":"-6.6459304","longitude":"106.6582039"},{"name":"SUNGAI PANAS","latitude":"1.14383035","longitude":"104.0288872"},{"name":"KARANGLIGAR","latitude":"-6.3205192","longitude":"107.253954"},{"name":"PULAU GERSIK","latitude":"-3.00011655","longitude":"107.27089542055691"},{"name":"BANTAR SARI","latitude":"-6.5267106","longitude":"106.7465069"},{"name":"MARGOMULYO","latitude":"-7.71813105","longitude":"110.31522345342391"},{"name":"BENTENG","latitude":"-3.7077179","longitude":"128.1625672"},{"name":"BARENGKOK","latitude":"-6.5877105","longitude":"106.633763"},{"name":"RISEH TUNONG","latitude":"4.9691184","longitude":"96.7966336"},{"name":"PENGASINAN","latitude":"-6.3709207","longitude":"106.6919841"},{"name":"CIMANGGU 1","latitude":"-6.6041398","longitude":"106.6688808"},{"name":"PURWODADI","latitude":"-8.1536845","longitude":"110.6791298"},{"name":"JAKA MULYA","latitude":"-6.9614925","longitude":"107.6500779"},{"name":"GUNUNG MENYAN","latitude":"-8.3203","longitude":"113.9992"},{"name":"KALISUREN","latitude":"-6.4774553","longitude":"106.7477612"},{"name":"JATISURA","latitude":"-6.5678474","longitude":"108.1797718"},{"name":"SEMPUR","latitude":"-3.9888876","longitude":"131.3770457"},{"name":"CIJERUK","latitude":"-7.1935338","longitude":"108.6040967"},{"name":"PISANGAN TIMUR","latitude":"-6.2062858","longitude":"106.8807695"},{"name":"KEPEL","latitude":"-7.3314551","longitude":"108.4812559"},{"name":"SUKAMANTRI","latitude":"-6.7633281","longitude":"107.8823667"},{"name":"SEMBUNG ANYAR","latitude":"-7.0073175","longitude":"112.5074459"},{"name":"SUSUKAN","latitude":"-6.3122872","longitude":"106.8674261"},{"name":"LULUT","latitude":"-6.4987605","longitude":"106.9165833"},{"name":"SELOTO","latitude":"-4.2395284","longitude":"35.494561"},{"name":"BANJAR WANGI","latitude":"-6.6958493","longitude":"106.8627425"},{"name":"SUKAMAKMUR","latitude":"0.7383557","longitude":"122.5826627"},{"name":"TANJUNG RASA","latitude":"-6.5936554","longitude":"107.1134876"},{"name":"CIMANGGU 2","latitude":"-6.6072483","longitude":"106.6639673"},{"name":"WANASARI","latitude":"-6.8651849","longitude":"109.0034952"},{"name":"PANGKAL JAYA","latitude":"-6.6017804","longitude":"106.5484366"},{"name":"IWUL","latitude":"-6.4580616","longitude":"106.7176899"},{"name":"TEGAL KERTHA","latitude":"-8.6594649","longitude":"115.197238"},{"name":"NEGLASARI","latitude":"-6.8958472","longitude":"107.6405797"},{"name":"PARAKAN MUNCANG","latitude":"-6.5872326","longitude":"106.539752"},{"name":"BUMI","latitude":"-3.4958784","longitude":"135.4855593"},{"name":"CANDIARENG","latitude":"-6.942269","longitude":"109.7098609"},{"name":"BOJONG JENGKOL","latitude":"-6.5891643","longitude":"106.7070482"},{"name":"SUNGAI BANGKONG","latitude":"-0.0370224","longitude":"109.3212472"},{"name":"SIRNARAJA","latitude":"-7.2983999","longitude":"108.0099518"},{"name":"SUKAWENING","latitude":"-7.1558805","longitude":"108.0048606"},{"name":"PETIR","latitude":"-8.0838037","longitude":"110.7275031"},{"name":"MULYAHARJA","latitude":"-6.6353353","longitude":"106.7868264"},{"name":"KARYASARI","latitude":"-7.1394047","longitude":"107.947318"},{"name":"SUKASLAMET","latitude":"-6.5305206","longitude":"108.0268702"},{"name":"SINDANGBARANG","latitude":"-6.9327446","longitude":"108.5180296"},{"name":"MERUYA SELATAN","latitude":"-6.2101635","longitude":"106.7329989"},{"name":"CIKOLE","latitude":"-6.8034251","longitude":"107.6544194"},{"name":"SUKAJADI","latitude":"-6.1822835","longitude":"106.6259193"},{"name":"CIMANGGIS","latitude":"-6.5080002","longitude":"106.7797759"},{"name":"CIBITUNG TENGAH","latitude":"-6.6243051","longitude":"106.6944046"},{"name":"PLAJU DARAT","latitude":"-3.0289517","longitude":"104.8010341"},{"name":"CIDERUM","latitude":"-6.6927994","longitude":"106.842115"},{"name":"MUARA GADING MAS","latitude":"-5.3310551","longitude":"105.8126931"},{"name":"KARANG ASEM TIMUR","latitude":"-6.5000745","longitude":"106.8805268"},{"name":"KARANG ASEM BARAT","latitude":"-6.4934674","longitude":"106.8675125"},{"name":"PAMIJAHAN","latitude":"-6.9681246","longitude":"108.5915667"},{"name":"DAYEUH","latitude":"-6.4478521","longitude":"106.9564125"},{"name":"SIRNAGALIH","latitude":"-7.2846137","longitude":"108.1932415"},{"name":"CARINGIN","latitude":"-6.9324191","longitude":"107.5709523"},{"name":"SITU UDIK","latitude":"-6.6385778","longitude":"106.6548937"},{"name":"CIBATOK 1","latitude":"-6.6179609","longitude":"106.6668798"},{"name":"CIAMPEA","latitude":"-6.57894495","longitude":"106.70197238721454"},{"name":"BANTARJAYA","latitude":"-6.5327878","longitude":"106.7411426"},{"name":"SUKARAKSA","latitude":"-6.5759141","longitude":"106.5280886"},{"name":"BENDUNGAN","latitude":"-7.9570273","longitude":"110.64505805315775"},{"name":"PAKU ALAM","latitude":"-6.8821626","longitude":"108.0784508"},{"name":"TULUSREJO","latitude":"-7.7815015","longitude":"109.8814518"},{"name":"NANGGERANG","latitude":"-6.8756218","longitude":"107.7588456"},{"name":"PASIR EURIH","latitude":"-6.6445706","longitude":"106.7541263"},{"name":"MERUYUNG","latitude":"-6.3773967","longitude":"106.7726042"},{"name":"PASAR BARU","latitude":"-6.165709","longitude":"106.83464170240697"},{"name":"BOJONG INDAH","latitude":"-6.16012525","longitude":"106.73637987067673"},{"name":"TUGU SELATAN","latitude":"-6.6999001","longitude":"106.9728686"},{"name":"ATEUK MUNJENG","latitude":"5.5166704","longitude":"95.3344508"},{"name":"BITUNG SARI","latitude":"-6.6789058","longitude":"106.8373649"},{"name":"PENANTIAN","latitude":"-4.3523939","longitude":"103.8497521"},{"name":"NEUSU JAYA","latitude":"5.5440271","longitude":"95.31775989117196"},{"name":"WARU","latitude":"-5.583333","longitude":"132.308333"},{"name":"KARADENAN","latitude":"-6.5100078","longitude":"106.8116266"},{"name":"TAMALANREA JAYA","latitude":"-5.1448227","longitude":"119.4930343"},{"name":"CIPICUNG","latitude":"-6.9432412","longitude":"108.5515137"},{"name":"SUKAMANAH","latitude":"-7.0491849","longitude":"107.7647884"},{"name":"MANYAR","latitude":"-6.8945593","longitude":"110.9775567"},{"name":"TUGU","latitude":"-6.9632755","longitude":"110.33152094021423"},{"name":"PONDOK PETIR","latitude":"-6.3669233","longitude":"106.7258115"},{"name":"TENGA","latitude":"-3.3101753","longitude":"29.4188334"},{"name":"KEBON PALA","latitude":"-6.2556447","longitude":"106.8775074"},{"name":"JATISARI","latitude":"-6.9356426","longitude":"107.6612225"},{"name":"MALAKA JAYA","latitude":"-6.223973","longitude":"106.9362377"},{"name":"BUANAJAYA","latitude":"-6.6263658","longitude":"107.1722729"},{"name":"KEMBANG KUNING","latitude":"-2.4414476","longitude":"115.2438305"},{"name":"SROGOL","latitude":"-6.7414283","longitude":"106.8105376"},{"name":"BAKTI JAYA","latitude":"-0.1335531","longitude":"110.3941637"},{"name":"RAGAJAYA","latitude":"-6.4537275","longitude":"106.7808418"},{"name":"CILEBUT BARAT","latitude":"-6.5225688","longitude":"106.7951757"},{"name":"CIBEBER I","latitude":"-7.687291","longitude":"108.1926262"},{"name":"BLANG POROH","latitude":"3.4080163","longitude":"97.1453429"},{"name":"CIPAYUNG","latitude":"-6.329545","longitude":"106.8930244"},{"name":"BOJONGNANGKA","latitude":"-6.9041004","longitude":"109.361436"},{"name":"SUKAJAYA","latitude":"-6.168505","longitude":"106.1672729"},{"name":"MUKTIJAYA","latitude":"-6.1900802","longitude":"107.5027459"},{"name":"WAGOM UTARA","latitude":"-2.9202152","longitude":"132.2928892"},{"name":"SUKAMULYA","latitude":"-6.9224942","longitude":"107.6978471"},{"name":"CENDORO","latitude":"-7.3445954","longitude":"112.3699121"},{"name":"WARUJAYA","latitude":"-6.7322108","longitude":"108.4460372"},{"name":"TIRTAJAYA","latitude":"-6.4047335","longitude":"106.83969"},{"name":"TENGAH","latitude":"0.9199161","longitude":"123.1406054"},{"name":"PAJANG","latitude":"-3.430127","longitude":"120.1162639"},{"name":"CILENDEK BARAT","latitude":"-6.5732103","longitude":"106.7672028"},{"name":"PARAKAN","latitude":"-7.2834552","longitude":"110.102191"},{"name":"KAMPUNG TENGAH","latitude":"2.5299605","longitude":"102.8271371"},{"name":"TEGALLEGA","latitude":"-7.2715745","longitude":"106.8323182"},{"name":"GENDEREH","latitude":"-6.6443887","longitude":"107.9498112"},{"name":"PEGADUNGAN","latitude":"-6.1339168","longitude":"106.7019941"},{"name":"PONDOK RANGGON","latitude":"-6.3544342","longitude":"106.9066357"},{"name":"PASIRKUDA","latitude":"-6.6056931","longitude":"106.7805687"},{"name":"SIBANTENG","latitude":"-6.5651049","longitude":"106.6038669"},{"name":"KARAWANG","latitude":"-6.3021906","longitude":"107.3046116"},{"name":"RANGGAMEKAR","latitude":"-6.6278403","longitude":"106.79826"},{"name":"PULO BRAYAN DARAT II","latitude":"3.6284773","longitude":"98.675264"},{"name":"TAJUR HALANG","latitude":"-6.4850814","longitude":"106.7714024"},{"name":"PEKAYON","latitude":"-6.3432799","longitude":"106.8646035"},{"name":"BATU TULIS","latitude":"-8.4457729","longitude":"118.5327377"},{"name":"BANTARJATI","latitude":"-6.5725992","longitude":"106.8084991"},{"name":"TEGAL","latitude":"-7.05644335","longitude":"109.13157658590205"},{"name":"CIBANTENG","latitude":"-6.556706","longitude":"106.7112989"},{"name":"SUKAHARJA","latitude":"-2.3495452","longitude":"110.6739886"},{"name":"BANTAR JATI","latitude":"-6.477289","longitude":"106.903527"},{"name":"MEKARJAYA","latitude":"-6.9631949","longitude":"107.6695302"},{"name":"TLAJUNG UDIK","latitude":"-6.4501287","longitude":"106.9086518"},{"name":"GUNUNG","latitude":"-9.6498914","longitude":"119.75032"},{"name":"RANGKAPAN JAYA","latitude":"-6.4052089","longitude":"106.793954"},{"name":"CILEUNGSI","latitude":"-6.3982206","longitude":"106.98189239498828"},{"name":"CANDALI","latitude":"-6.5121987","longitude":"106.7210452"},{"name":"PUSPASARI","latitude":"-6.4811188","longitude":"106.8712185"},{"name":"DURI KEPA","latitude":"-6.175123","longitude":"106.7743079"},{"name":"JATIJAJAR","latitude":"-7.2031945","longitude":"110.4351282"},{"name":"POHUWATO","latitude":"0.70182105","longitude":"121.64707463776901"},{"name":"PARUNGSEAH","latitude":"-6.9002914","longitude":"106.9111556"},{"name":"SIPAYUNG","latitude":"-6.5713305","longitude":"106.3909951"},{"name":"DUKUPUNTANG","latitude":"-6.7687321","longitude":"108.4149646"},{"name":"SARABAU","latitude":"-9.0994925","longitude":"124.9649606"},{"name":"TAMBAKMEKAR","latitude":"-6.6487947","longitude":"107.7020464"},{"name":"SUKA PURA","latitude":"-6.1476246","longitude":"106.9303862"},{"name":"PANEMBONG","latitude":"-7.269673","longitude":"107.8415116"},{"name":"PODOSARI","latitude":"-7.0490969","longitude":"109.5353861"},{"name":"BABAKAN","latitude":"-6.9329907","longitude":"107.5765974"},{"name":"CIPETE UTARA","latitude":"-6.2618041","longitude":"106.8041214"},{"name":"HARKATJAYA","latitude":"-6.6087532","longitude":"106.5102079"},{"name":"RAKAM","latitude":"29.0542424","longitude":"81.4566721"},{"name":"KAMPUNG BARU","latitude":"3.1612696","longitude":"101.7067986"},{"name":"CIDOKOM","latitude":"-6.4112051","longitude":"106.708983"},{"name":"CIBURUY","latitude":"-6.7281108","longitude":"106.8027617"},{"name":"MULIA","latitude":"0.65","longitude":"121.8604"},{"name":"CIHERANG","latitude":"-7.3777003","longitude":"108.2609326"},{"name":"CIBITUNG KULON","latitude":"-6.6654811","longitude":"106.6581427"},{"name":"BOJONG GENTENG","latitude":"-6.8464198","longitude":"106.7231466"},{"name":"BANYU ASIH","latitude":"-6.0608559","longitude":"106.5220463"},{"name":"SITU ILIR","latitude":"-6.6309808","longitude":"106.6545279"},{"name":"GIRIMULYA","latitude":"-7.157447","longitude":"107.6690224"},{"name":"KEDUNG WARINGIN","latitude":"-6.4990958","longitude":"106.796115"},{"name":"PURBA BARU","latitude":"0.7806492","longitude":"99.4949862"},{"name":"CIHERANG PONDOK","latitude":"-6.6820942","longitude":"106.8215618"},{"name":"BEKASI JAYA","latitude":"-6.23476325","longitude":"107.01045805447774"},{"name":"KEDUNGJAYA","latitude":"-6.7257067","longitude":"108.5286198"},{"name":"BABAKAN SADENG","latitude":"-6.5751358","longitude":"106.5884063"},{"name":"KADIA","latitude":"-3.9944882","longitude":"122.5061971"},{"name":"KARANGHARJA","latitude":"-7.1803125","longitude":"107.1609025"},{"name":"KEBAGUSAN","latitude":"-6.3103102","longitude":"106.8312171"},{"name":"KEMANG","latitude":"-3.3949445000000003","longitude":"104.36153695374253"},{"name":"SEKARWANGI","latitude":"-6.7324807","longitude":"107.9945667"},{"name":"BUARAN JATI","latitude":"-6.0781073","longitude":"106.5518864"},{"name":"TAPOS 2","latitude":"-6.6345242","longitude":"106.6920414"},{"name":"PASAWAHAN","latitude":"-6.8419684","longitude":"108.6026136"},{"name":"KOTA BATU","latitude":"-7.8711667","longitude":"112.5269482"},{"name":"CINANGNENG","latitude":"-6.6117187","longitude":"106.7042601"},{"name":"MUNGGU","latitude":"-1.4121197","longitude":"116.2714848"},{"name":"CILODONG","latitude":"-6.4249935","longitude":"106.843683"},{"name":"TANAHBARU","latitude":"-6.0339417","longitude":"107.1478305"},{"name":"PULO GEBANG","latitude":"-6.2051221","longitude":"106.9522403"},{"name":"BOJONG","latitude":"-7.9139592","longitude":"110.1393469"},{"name":"KOSAMBI TIMUR","latitude":"-6.0789766","longitude":"106.7005106"},{"name":"JONGGOL","latitude":"-6.50818065","longitude":"107.02826165905826"},{"name":"KERTAMULYA","latitude":"-6.3715192","longitude":"108.0230196"},{"name":"TAMBUN","latitude":"4.6112263","longitude":"101.1400876"},{"name":"GUNUNG PUTRI","latitude":"-7.456667","longitude":"109.085833"},{"name":"TONJUNG","latitude":"-7.0467392","longitude":"112.7855651"},{"name":"WANGON","latitude":"-7.5111414","longitude":"109.059632"},{"name":"KUTAJAYA","latitude":"-6.7652095","longitude":"106.7832679"},{"name":"CIGELAM","latitude":"-6.0674107","longitude":"106.2237559"},{"name":"SUNGAI BESAR","latitude":"3.6777145","longitude":"100.9880263"},{"name":"WATES JAYA","latitude":"-6.7537318","longitude":"106.8078598"},{"name":"MARGAJAYA","latitude":"-6.991709","longitude":"108.1960673"},{"name":"LEUWIMEKAR","latitude":"-6.59051525","longitude":"106.62806756552258"},{"name":"DUKUH","latitude":"-6.2951231","longitude":"106.8780003"},{"name":"CIKARAWANG","latitude":"-6.550954","longitude":"106.7400054"},{"name":"SANTONG","latitude":"-8.3646685","longitude":"116.3097533"},{"name":"AIR BERUDANG","latitude":"3.0749163","longitude":"97.3702987"},{"name":"CIPAKU","latitude":"-6.7731736","longitude":"108.1989733"},{"name":"SUKAMANDI","latitude":"-6.7177474","longitude":"107.6221628"},{"name":"WELALA","latitude":"-4.1767604","longitude":"121.8575781"},{"name":"BEDAHAN","latitude":"-6.4267812","longitude":"106.7698678"},{"name":"COGREG","latitude":"-6.4263713","longitude":"106.6912547"},{"name":"PAMOYANAN","latitude":"-6.9030978","longitude":"107.5939092"},{"name":"RANGKASBITUNG TIMUR","latitude":"-6.4081903","longitude":"106.2967658"},{"name":"BABAKAN MADANG","latitude":"-6.5640263","longitude":"106.8640262"},{"name":"TANAMODINDI","latitude":"-0.9190776","longitude":"119.9279557"},{"name":"CIASMARA","latitude":"-6.7083345","longitude":"106.6672497"},{"name":"JOGJOGAN","latitude":"-7.2460911","longitude":"109.6590391"},{"name":"PADASUKA","latitude":"-6.9036677","longitude":"107.6469704"},{"name":"GUNUNG SARI","latitude":"-5.1795026","longitude":"119.4417346"},{"name":"PASIRBUNGUR","latitude":"-6.9071411","longitude":"106.3888214"},{"name":"CIASIHAN","latitude":"-6.7065191","longitude":"106.6771634"},{"name":"CIBUNIAN","latitude":"-6.6931901","longitude":"106.6432384"},{"name":"BEJI","latitude":"-7.8575815","longitude":"110.6747905"},{"name":"JAMPANG","latitude":"-6.4075615","longitude":"106.6640406"},{"name":"RATUJAYA","latitude":"-6.419831","longitude":"106.8080141"},{"name":"SETU SARI","latitude":"-6.4458052","longitude":"107.0026325"},{"name":"CIMANDALA","latitude":"-6.5298886","longitude":"106.8288881"},{"name":"KALIBARU","latitude":"-8.288398","longitude":"113.9861548"},{"name":"CIJAYANTI","latitude":"-6.6049687","longitude":"106.8744595"},{"name":"PASIRBARU","latitude":"-7.1385454","longitude":"107.1988865"},{"name":"CAMBAYA","latitude":"-5.1109265","longitude":"119.4257988"},{"name":"KALUPAPI","latitude":"-1.9046243","longitude":"123.1926703"},{"name":"PARAKAN JAYA","latitude":"-6.521072","longitude":"106.7644358"},{"name":"SINAR SARI","latitude":"-5.1711284","longitude":"105.0046055"},{"name":"KALONGSAWAH","latitude":"-6.4941026","longitude":"106.4989906"},{"name":"SEMPLAK","latitude":"-6.560069","longitude":"106.7634377"},{"name":"SITU DAUN","latitude":"-6.6185756","longitude":"106.7112835"},{"name":"CIBULUH","latitude":"-6.7136087","longitude":"107.789112"},{"name":"MULYAJAYA","latitude":"-7.3752997","longitude":"107.8686196"},{"name":"PANARAGAN","latitude":"-4.4990104","longitude":"105.1186225"},{"name":"DRAMAGA","latitude":"-6.586459850000001","longitude":"106.73487772108498"},{"name":"SUKALUYU","latitude":"-6.8973073","longitude":"107.627486"},{"name":"PINAYUNGAN","latitude":"-6.3389171","longitude":"107.3106809"},{"name":"CISEENG","latitude":"-6.45906965","longitude":"106.67929785650875"},{"name":"PASIR GAOK","latitude":"-6.5291906","longitude":"106.7296754"},{"name":"BOJONG NANGKA","latitude":"-6.2565832","longitude":"106.596326"},{"name":"EMPANG","latitude":"-8.7667206","longitude":"118.0031049"},{"name":"JAKA SETIA","latitude":"-6.9625484","longitude":"107.6500912"},{"name":"BANDUNGREJO","latitude":"-7.0804343","longitude":"112.1091016"},{"name":"CIRIUNG","latitude":"-6.4619785","longitude":"106.8658472"},{"name":"CIGUDEG","latitude":"-6.549083","longitude":"106.5318186"},{"name":"GUNUNGJAYA","latitude":"-7.1423648","longitude":"109.3732784"},{"name":"CIPAMBUAN","latitude":"-6.5580123","longitude":"106.8470886"},{"name":"DARAT SAWAH","latitude":"-4.5577559","longitude":"103.2105756"},{"name":"SETU","latitude":"-6.3127494","longitude":"106.9145539"},{"name":"PASIR MUKTI","latitude":"-6.9049439","longitude":"108.0441572"},{"name":"YOSOMULYO","latitude":"0.5373","longitude":"121.7406"},{"name":"CIBALUNG","latitude":"-6.6934014","longitude":"106.8004438"},{"name":"CIKEAS","latitude":"-6.5895627","longitude":"106.8440519"},{"name":"PASIRMULYA","latitude":"-7.091043","longitude":"107.5892801"},{"name":"CIKARANG","latitude":"-6.2587148","longitude":"107.145742"},{"name":"SAMBUTAN","latitude":"-0.509338","longitude":"117.1820748"},{"name":"SEMPLAK BARAT","latitude":"-6.5444483","longitude":"106.7528483"},{"name":"RANCA BUNGUR","latitude":"-6.5343586","longitude":"106.7131414"},{"name":"CAWANG","latitude":"-6.2503382","longitude":"106.8674908"},{"name":"GUNUNGLARANG","latitude":"-7.1902882","longitude":"108.8284817"},{"name":"SADIA","latitude":"-16.0868972","longitude":"-57.2862942"},{"name":"SITUGEDE","latitude":"-7.1074873","longitude":"108.5612017"},{"name":"TUWEL","latitude":"-7.1641545","longitude":"109.149021"},{"name":"RABAK","latitude":"0.4748955","longitude":"109.6525671"},{"name":"PONDOK RAJEG","latitude":"-6.4606782","longitude":"106.8246073"},{"name":"KARACAK","latitude":"-7.2216518","longitude":"107.909994"},{"name":"CIADEG","latitude":"-6.7151212","longitude":"106.8027073"},{"name":"PARUNG","latitude":"-6.4405056","longitude":"106.71719959625597"},{"name":"CIOMAS RAHAYU","latitude":"-6.5996385","longitude":"106.7631019"},{"name":"KAREHKEL","latitude":"-6.5450729","longitude":"106.6393606"},{"name":"BALEKAMBANG","latitude":"-6.8793696","longitude":"106.8043029"},{"name":"KOMPERTA","latitude":"-3.00767205","longitude":"104.81993975"},{"name":"CIKAHURIPAN","latitude":"-6.8065564","longitude":"107.611735"},{"name":"CIPURUT","latitude":"-6.9430935","longitude":"106.9932976"},{"name":"BARANANGSIANG","latitude":"-6.9107342","longitude":"107.35955"},{"name":"RENDE","latitude":"39.3319934","longitude":"16.1843828"},{"name":"SUKARAJA","latitude":"-6.8901546","longitude":"107.5662896"},{"name":"KADUMANGU","latitude":"-6.5417189","longitude":"106.8527007"},{"name":"PALENGGIYAN","latitude":"-7.048117","longitude":"113.3003386"},{"name":"CIPEUTEUY","latitude":"-6.7644518","longitude":"106.594376"},{"name":"CIKARET","latitude":"-6.944943","longitude":"106.9665526"},{"name":"ULUJAMI","latitude":"-6.8835112","longitude":"109.5655788"},{"name":"PABATON","latitude":"-6.591581","longitude":"106.7930055"},{"name":"NANGGUNG","latitude":"-6.6166596","longitude":"106.5263493"},{"name":"SADENG","latitude":"-7.0323283","longitude":"110.3716783"},{"name":"CIBENTANG","latitude":"-6.9392827","longitude":"108.4876652"},{"name":"PEUNDEUY","latitude":"-7.5213301","longitude":"107.9120764"},{"name":"PURWABAKTI","latitude":"-6.7276905","longitude":"106.648689"},{"name":"SIDOSARI","latitude":"-7.5358302","longitude":"110.119913"},{"name":"SUWAKAN","latitude":"-6.879481","longitude":"106.293343"},{"name":"PINGIT LOR","latitude":"-7.2480974","longitude":"109.5569516"},{"name":"PAKANSARI","latitude":"-6.49498945","longitude":"106.83343266534752"},{"name":"KALIMULYA","latitude":"-6.4407643","longitude":"106.8198006"},{"name":"PAOK LOMBOK","latitude":"-8.5076","longitude":"116.4355"},{"name":"JATIMAKMUR","latitude":"-6.2846812","longitude":"106.9256285"},{"name":"LOJI","latitude":"-0.8307422","longitude":"120.1704002"},{"name":"KABASIRAN","latitude":"-6.3666398","longitude":"106.5933006"},{"name":"PABANGBON","latitude":"-6.6152185","longitude":"106.5925915"},{"name":"RAWA SARI","latitude":"-2.7216947","longitude":"112.9610031"},{"name":"PASIR NANGKA","latitude":"-6.2375","longitude":"106.268333"},{"name":"CURUG BITUNG","latitude":"-6.6317613","longitude":"106.5329014"},{"name":"SAKETI","latitude":"24.3883112","longitude":"82.70314091617927"},{"name":"SIPAK","latitude":"-6.4785282","longitude":"106.4870899"},{"name":"MAGUAN","latitude":"23.0156398","longitude":"104.3923205"},{"name":"MANDALAWANGI","latitude":"-6.3544022","longitude":"107.7421228"},{"name":"PASIR TANJUNG","latitude":"-6.890833","longitude":"107.293889"},{"name":"PAKUAN","latitude":"1.1392","longitude":"120.8585"},{"name":"CILILITAN","latitude":"-6.2624687","longitude":"106.86381"},{"name":"PONDOK UDIK","latitude":"-6.4856675","longitude":"106.7362619"},{"name":"LEUWEUNG KOLOT","latitude":"-6.5991987","longitude":"106.6748865"},{"name":"SAWANGAN BARU","latitude":"-6.4003188","longitude":"106.7665906"},{"name":"CIPARAHU","latitude":"-6.8361219","longitude":"106.1078201"},{"name":"CISONDARI","latitude":"-7.1271315","longitude":"107.4888086"},{"name":"BUKIT TEMPAYAN","latitude":"2.0133586","longitude":"102.943705"},{"name":"BANTAR AGUNG","latitude":"-6.811916","longitude":"108.3843221"},{"name":"TELAGA ASIH","latitude":"-6.2639037","longitude":"107.09676"},{"name":"TANGKIL","latitude":"-7.3904821","longitude":"111.0148609"},{"name":"JENGGAWAH","latitude":"-8.2661197","longitude":"113.6629116"},{"name":"BOJONG GEDE","latitude":"-6.7764536","longitude":"106.9252496901004"},{"name":"TANGGULUN BARAT","latitude":"-6.5492616","longitude":"107.6451464"},{"name":"SETIAWARAS","latitude":"-7.5678563","longitude":"108.1784992"},{"name":"CIAPUS","latitude":"-6.6190179","longitude":"106.7573133"},{"name":"MEKARSARI","latitude":"-6.1521873","longitude":"106.6166304"},{"name":"GOROWONG","latitude":"-6.412172","longitude":"106.5648086"},{"name":"POLEWALI","latitude":"-3.4332204","longitude":"119.3527114"},{"name":"BAGOANG","latitude":"-6.4369625","longitude":"106.4603863"},{"name":"KIARAPANDAK","latitude":"-6.928611","longitude":"106.691944"},{"name":"KEBON KACANG","latitude":"-6.1902407","longitude":"106.8166009"},{"name":"KIARASARI","latitude":"-6.4528834","longitude":"107.8749947"},{"name":"CIHAMERANG","latitude":"-6.8050868","longitude":"106.5684175"},{"name":"BATU SEMBILAN","latitude":"0.9136537","longitude":"104.50914069463812"},{"name":"LINGGA JAYA","latitude":"-5.1070091","longitude":"104.7057309"},{"name":"KRANDON","latitude":"-6.7962721","longitude":"110.840345"},{"name":"GANDUSARI","latitude":"-8.1296233","longitude":"111.7011006"},{"name":"SUKALARANG","latitude":"-6.8601539","longitude":"106.9841309"},{"name":"MULYASARI","latitude":"-2.4632396","longitude":"120.7607995"},{"name":"CIBATOK 2","latitude":"-6.6264857","longitude":"106.669191"},{"name":"PLUKARAN","latitude":"-6.6788015","longitude":"110.9254166"},{"name":"BULUBRANGSI","latitude":"-6.9639243","longitude":"112.3551715"},{"name":"SASAK PANJANG","latitude":"-6.4695889","longitude":"106.7656351"},{"name":"TAMAN SARI","latitude":"-6.1558531","longitude":"106.8244003"},{"name":"LAGOA","latitude":"37.13258125","longitude":"-8.45505094811731"},{"name":"NAMBO","latitude":"-6.4664068","longitude":"106.9063938"},{"name":"PAHMUNGAN","latitude":"-5.098999","longitude":"104.0151982"},{"name":"GINTUNG CILEJET","latitude":"-6.3657455","longitude":"106.5292755"},{"name":"KADUNUNGGAL","latitude":"-6.8558195","longitude":"106.6769571"},{"name":"SUKAKARYA","latitude":"-2.3646883","longitude":"114.8513904"},{"name":"PULOGADING","latitude":"-6.8479978","longitude":"108.9472063"},{"name":"ARUI BAB","latitude":"-7.7248494","longitude":"131.5171086"},{"name":"KARAMAT","latitude":"-6.7265438","longitude":"108.2883165"},{"name":"NAGRAK UTARA","latitude":"-6.8366272","longitude":"106.8129815"},{"name":"SRIWIDARI","latitude":"-6.916917","longitude":"106.9177433"},{"name":"CIREUNGHAS","latitude":"-6.9463508","longitude":"107.0202571"},{"name":"GIRILAYA","latitude":"-6.5848743","longitude":"106.3575346"},{"name":"NYALINDUNG","latitude":"-6.787202","longitude":"107.9293787"},{"name":"CARINGIN WETAN","latitude":"-6.8460244","longitude":"106.888662"},{"name":"CIMANGKOK","latitude":"-6.8826288","longitude":"106.9920938"},{"name":"TEGALBULEUD","latitude":"-7.4230113","longitude":"106.7577985"},{"name":"KARANGBARU","latitude":"-6.2608338","longitude":"107.1599087"},{"name":"BARUMEKAR","latitude":"-7.4840168","longitude":"108.1561068"},{"name":"PEKAYON JAYA","latitude":"-6.26669695","longitude":"106.98423710086868"},{"name":"SUKAMAJU BARU","latitude":"-6.4026969","longitude":"106.8719002"},{"name":"WAIGAMA","latitude":"-1.8364","longitude":"129.8316"},{"name":"WARINGIN JAYA","latitude":"-5.3198846","longitude":"105.6854158"},{"name":"GANDOANG","latitude":"-7.1662825","longitude":"108.8436373"},{"name":"SINDANGSARI","latitude":"-7.4583931","longitude":"108.6193528"},{"name":"RANTAU SULI","latitude":"-2.564699","longitude":"101.9717937"},{"name":"PASIR IMPUN","latitude":"-6.8969373","longitude":"107.6788219"},{"name":"CIRIMEKAR","latitude":"-6.4734452","longitude":"106.8584614"},{"name":"MUSTIKA JAYA","latitude":"-3.6093327","longitude":"115.924052"},{"name":"DUREN SERIBU","latitude":"-6.4323246","longitude":"106.7439232"},{"name":"GELORA","latitude":"-6.2154325","longitude":"106.80285153310811"},{"name":"MUARASARI","latitude":"-6.6397961","longitude":"106.8274832"},{"name":"CIAMIS","latitude":"-7.313159300000001","longitude":"108.40489379583816"},{"name":"KARYAMUKTI","latitude":"-7.4890146","longitude":"108.5463948"},{"name":"PANCORAN MAS","latitude":"-6.40513","longitude":"106.8066939"},{"name":"CIKINI","latitude":"-6.1982336","longitude":"106.8410674"},{"name":"PANJANGSARI","latitude":"-7.6169197","longitude":"109.5438204"},{"name":"BOJONG BARU","latitude":"-6.4818921","longitude":"106.8131663"},{"name":"BANGKINANG","latitude":"0.3442219","longitude":"101.0214651"},{"name":"GUNUNG PICUNG","latitude":"-6.712222","longitude":"108.391944"},{"name":"BIREM","latitude":"-7.005527","longitude":"113.171196"},{"name":"PLANGGARAN TIMUR","latitude":"-6.9745388","longitude":"113.1783227"},{"name":"TAMANJAYA","latitude":"-7.4075333","longitude":"108.2356751"},{"name":"LEUWISADENG","latitude":"-6.5838318","longitude":"106.6131928"},{"name":"KUNING II","latitude":"3.4180945","longitude":"97.9081046"},{"name":"GOBANG","latitude":"-6.504174","longitude":"106.63846"},{"name":"SUMOBITO","latitude":"-7.5183412","longitude":"112.3408773"},{"name":"CIBEUTEUNG UDIK","latitude":"-6.493041","longitude":"106.7052648"},{"name":"AIR SAGA","latitude":"-2.705577","longitude":"107.6375832"},{"name":"UTAN PANJANG","latitude":"-6.1648717","longitude":"106.8548145"},{"name":"GENTENG","latitude":"-7.260498500000001","longitude":"112.74517399092005"},{"name":"PASIR","latitude":"0.4284602","longitude":"109.0418508"},{"name":"JAYAWARAS","latitude":"-7.211327","longitude":"107.8763085"},{"name":"BATUTULIS","latitude":"-8.6890063","longitude":"116.2148092"},{"name":"PRINGSEWU SELATAN","latitude":"-5.3505702","longitude":"104.9828348"},{"name":"KALONG II","latitude":"-6.552278","longitude":"106.5807724"},{"name":"TAMBANGAN KELEKAR","latitude":"-3.2896915","longitude":"104.47710551651022"},{"name":"BANJARHARJO","latitude":"-7.5321114","longitude":"110.9518976"},{"name":"PADURENAN","latitude":"-6.3974514","longitude":"106.7078698"},{"name":"AIR HITAM","latitude":"-0.4652027","longitude":"117.1346045"},{"name":"PASIRGOMBONG","latitude":"-6.2852265","longitude":"107.1535209"},{"name":"CIBOLANG KALER","latitude":"-6.9121872","longitude":"106.8575726"},{"name":"BUNIWANGI","latitude":"-6.7171239","longitude":"108.3071509"},{"name":"ROWOSARI","latitude":"-7.0621712","longitude":"110.4819827"},{"name":"KAWELA","latitude":"-8.3759025","longitude":"123.0647192"},{"name":"NGGOREA","latitude":"-8.7972339","longitude":"121.5030094"},{"name":"TEGAL ALUR","latitude":"-6.1191781","longitude":"106.7164165"},{"name":"MARGAHAYU","latitude":"-6.2525019","longitude":"107.0150659"},{"name":"MEKAR JAYA","latitude":"-3.8983948","longitude":"104.0366136"},{"name":"KELUN","latitude":"-7.6068945","longitude":"111.5527408"},{"name":"CIBODAS","latitude":"-6.1943633","longitude":"106.6050489"},{"name":"BABAKAN GEBANG","latitude":"-6.8234908999999995","longitude":"108.72577515"},{"name":"RAWA TERATE","latitude":"-6.1869376","longitude":"106.9215512"},{"name":"SAUMLAKI","latitude":"-7.9741711","longitude":"131.3048761"},{"name":"JERUK","latitude":"-7.2980365","longitude":"112.6444644"},{"name":"CITARIK","latitude":"-7.0015803","longitude":"106.5772713"},{"name":"MALASARI","latitude":"-7.0883776","longitude":"107.5395826"},{"name":"PURASEDA","latitude":"-6.6441788","longitude":"106.6218035"},{"name":"SRENGSENG SAWAH","latitude":"-6.3449388","longitude":"106.8262052"},{"name":"HARAPAN","latitude":"0.7001331","longitude":"122.5095633"},{"name":"TOMBULA","latitude":"-5.1353742","longitude":"122.5295212"},{"name":"KEDUNGOLENG","latitude":"-7.3216911","longitude":"109.0053767"},{"name":"TELUK PINANG","latitude":"-6.6801258","longitude":"106.8502028"},{"name":"KALIANYAR","latitude":"-6.1577846","longitude":"106.7987842"},{"name":"BATU LAYAR","latitude":"-8.519337","longitude":"116.0681319"},{"name":"GIRISEKAR","latitude":"-8.0443204","longitude":"110.463694"},{"name":"DAYEUHLUHUR","latitude":"-7.2592301","longitude":"108.6108184"},{"name":"MENGKIRAU","latitude":"1.1561871","longitude":"102.3772845"},{"name":"PROYONANGGAN UTARA","latitude":"-6.9030132","longitude":"109.7342278"},{"name":"CEMPLANG","latitude":"-6.2472273","longitude":"106.0712966"},{"name":"PASIREURIH","latitude":"-6.4054553","longitude":"105.9538261"},{"name":"JOMBANG WETAN","latitude":"-6.0148517","longitude":"106.0593471"},{"name":"NGABUL","latitude":"-6.64809","longitude":"110.7036548"},{"name":"KEBON BAWANG","latitude":"-6.1198964","longitude":"106.8885581"},{"name":"CIHIDEUNG UDIK","latitude":"-6.5968055","longitude":"106.7148636"},{"name":"SAWANGAN LAMA","latitude":"-6.40188","longitude":"106.7569434"},{"name":"JAMBANGAN","latitude":"-7.3243305","longitude":"112.71572071945431"},{"name":"RAMBUTAN","latitude":"-6.3046995","longitude":"106.8745605"},{"name":"PULAU SUMEDANG","latitude":"-3.157719","longitude":"107.2285362"},{"name":"SUNTER JAYA","latitude":"-6.151857","longitude":"106.8781723"},{"name":"MARGALUYU","latitude":"-6.0528508","longitude":"106.1679253"},{"name":"BANTAR KARET","latitude":"-6.6729375","longitude":"106.5718799"},{"name":"SUMBERJAYA","latitude":"-6.6586198","longitude":"105.5931187"},{"name":"PAL MERIEM","latitude":"36.8866034","longitude":"6.897132692773106"},{"name":"KOTA TANJUNG PANDAN","latitude":"-0.7909555","longitude":"100.6606134"},{"name":"PASIRHALANG","latitude":"-6.9288882","longitude":"106.9567542"},{"name":"KARANGPARI","latitude":"-7.2660333","longitude":"108.9082432"},{"name":"AIR SERU","latitude":"-2.6922468","longitude":"107.7343898"},{"name":"CIMUNING","latitude":"-6.3261614","longitude":"107.0280096"},{"name":"LABUANG","latitude":"-3.5363497","longitude":"118.9717486"},{"name":"CILUAR","latitude":"-6.5653216","longitude":"106.8284529"},{"name":"CERUCUK","latitude":"-2.8261904","longitude":"107.7066304"},{"name":"SUKAGALIH","latitude":"-6.8862978","longitude":"107.586881"},{"name":"KERTAMUKTI","latitude":"-6.738989","longitude":"107.8657744"},{"name":"KUNINGAN BARAT","latitude":"-6.2364893","longitude":"106.8218724"},{"name":"DUKONG","latitude":"-2.7760577","longitude":"107.6722617"},{"name":"BOJONGHERANG","latitude":"-6.8161704","longitude":"107.1392406"},{"name":"PATIPELONG","latitude":"-5.7638339","longitude":"123.9263675"},{"name":"SUKAMAHI","latitude":"-7.2873327","longitude":"108.1548641"},{"name":"PANDAN WANGI","latitude":"-1.5432311","longitude":"122.2309821"},{"name":"PUTAPA","latitude":"-3.7890349","longitude":"135.8218809"},{"name":"CITAPEN","latitude":"-7.0696181","longitude":"108.4864395"},{"name":"GANDASULI","latitude":"-6.8786128","longitude":"109.0529269"},{"name":"JURU SEBERANG","latitude":"-2.7736934","longitude":"107.6255475"},{"name":"PANGKAL LALANG","latitude":"-2.7432889","longitude":"107.6470506"},{"name":"KALAPAREA","latitude":"-6.8352592","longitude":"106.8466842"},{"name":"CISAAT","latitude":"-7.0341979","longitude":"108.7480485"},{"name":"SUAK GUAL","latitude":"-2.9179093","longitude":"107.3872107"},{"name":"PERAWAS","latitude":"-2.746904","longitude":"107.7160012"},{"name":"PASIRJAYA","latitude":"-6.1872865","longitude":"107.51509070123632"},{"name":"CIJANTUNG","latitude":"-6.3212053","longitude":"106.8587894"},{"name":"PASIR PUTIH","latitude":"5.9379386","longitude":"116.6589887"},{"name":"BUKIT BERLIAN","latitude":"-3.2032152","longitude":"101.838893"},{"name":"PARIAMA","latitude":"-3.2399325","longitude":"121.7162625"},{"name":"PENGGILINGAN","latitude":"-6.202129","longitude":"106.93424759312445"},{"name":"AIR MERBAU","latitude":"-2.7181929","longitude":"107.6907109"},{"name":"BATULAWANG","latitude":"-6.6748916","longitude":"107.0478959"},{"name":"KACANG BOTOR","latitude":"-2.7596451","longitude":"107.8285118"},{"name":"PARIT","latitude":"4.4768608","longitude":"100.9093896"},{"name":"HAMBALANG","latitude":"-6.5463606","longitude":"106.8938523"},{"name":"PONDOK KACANG TIMUR","latitude":"-6.2543867","longitude":"106.6948521"},{"name":"PENAGAN RATU","latitude":"-4.7886988","longitude":"104.9788474"},{"name":"RAWA PANJANG","latitude":"-6.2586","longitude":"106.9955659"},{"name":"WARUDOYONG","latitude":"-6.9289001","longitude":"106.9250435"},{"name":"KEMBIRI","latitude":"-3.0422011","longitude":"107.7813616"},{"name":"KADEMANGARAN","latitude":"-6.8936124","longitude":"109.1437227"},{"name":"KRUKUT","latitude":"-6.1570096","longitude":"106.81474747026579"},{"name":"KUTA BUMI","latitude":"-6.1486082","longitude":"106.5657069"},{"name":"BATUA","latitude":"42.2885656","longitude":"18.8419505"},{"name":"JATINEGARA KAUM","latitude":"-6.20113","longitude":"106.9027609"},{"name":"PANUNGGALAN","latitude":"-7.1268482","longitude":"111.059128"},{"name":"KEMBANG JAJAR SP7 AT","latitude":"-4.0729355","longitude":"105.046831"},{"name":"WERU","latitude":"-7.7754315","longitude":"110.7580914"},{"name":"CIBEUTEUNG MUARA","latitude":"-6.4531007","longitude":"106.6723496"},{"name":"KINALI","latitude":"2.7706425","longitude":"125.3797011"},{"name":"SINDANGRASA","latitude":"-7.4668535","longitude":"108.5996298"},{"name":"KATIAGAN","latitude":"-0.1065316","longitude":"99.8079457"},{"name":"SUKASIRNA","latitude":"-6.8774834","longitude":"106.7210077"},{"name":"SIJUK","latitude":"-2.6334733","longitude":"107.8355289"},{"name":"BAHAGIA","latitude":"5.092138","longitude":"116.4409293"},{"name":"PEMECUTAN","latitude":"-8.6569918","longitude":"115.2069302"},{"name":"SUKA NEGARA","latitude":"-5.1098497","longitude":"105.033622"},{"name":"SUMBER","latitude":"-6.85885265","longitude":"111.9881373896592"},{"name":"BANDAR BUAT","latitude":"-0.9450133","longitude":"100.4435956"},{"name":"PASIR BUNCIR","latitude":"-6.7544168","longitude":"106.8370498"},{"name":"KARANGMALANG","latitude":"-7.0966091","longitude":"110.3327117"},{"name":"CINTAMANIK","latitude":"-7.1873524","longitude":"109.0859535"},{"name":"TUGU JAYA","latitude":"-3.8126487","longitude":"104.905216"},{"name":"EMPANGSARI","latitude":"-7.3434287","longitude":"108.2208273"},{"name":"SINDANG","latitude":"-6.9566411","longitude":"109.1035994"},{"name":"SUKAKERTA","latitude":"-6.6199204","longitude":"108.1609314"},{"name":"CIMARAGANG","latitude":"-7.4578641","longitude":"107.4100808"},{"name":"BAMBAR","latitude":"-2.528906","longitude":"140.4539618"},{"name":"LEMAH DUHUR","latitude":"-6.7191517","longitude":"106.8494111"},{"name":"III KOTO","latitude":"-0.5153386","longitude":"100.5401181"},{"name":"KUKUSAN","latitude":"-3.42","longitude":"127.150278"},{"name":"BANYU AJUH","latitude":"-7.1535547","longitude":"112.7163475"},{"name":"BATU GANA","latitude":"1.462651","longitude":"99.5366258"},{"name":"CIPINANG BESAR UTARA","latitude":"-6.220257999999999","longitude":"106.87841902927636"},{"name":"KARANGPATRI","latitude":"-6.1737446","longitude":"107.2407939"},{"name":"KARIHKIL","latitude":"-6.5008746","longitude":"106.692825"},{"name":"KECIPUT","latitude":"-2.5717755","longitude":"107.6791978"},{"name":"SAWAH GEDE","latitude":"-6.824373","longitude":"107.1341182"},{"name":"HARJASARI","latitude":"-6.6522685","longitude":"106.8386341"},{"name":"KAGO","latitude":"-0.2320052","longitude":"31.7980833"},{"name":"TAREMPA BARAT","latitude":"3.2119164","longitude":"106.218404"},{"name":"PADEMANGAN BARAT","latitude":"-6.134204","longitude":"106.8361018"},{"name":"PURWASARI","latitude":"-7.0025158","longitude":"108.5297842"},{"name":"TEBET BARAT","latitude":"-6.2339315","longitude":"106.8489052"},{"name":"TAMBAK","latitude":"-7.6119022","longitude":"109.4112378"},{"name":"PERUMNAS RAHMA","latitude":"-3.3009958","longitude":"102.9189713"},{"name":"DAGO","latitude":"-6.8750079","longitude":"107.6159521"},{"name":"RENGASJAJAR","latitude":"-6.447572","longitude":"106.5691508"},{"name":"JAGAMUKTI","latitude":"-7.3342049","longitude":"106.5947797"},{"name":"SERDANG","latitude":"3.0233688499999998","longitude":"101.71602716231698"},{"name":"TERONG","latitude":"4.7094088","longitude":"100.7198151"},{"name":"PAAL SATU","latitude":"-2.7162957","longitude":"107.6753349"},{"name":"MENTIGI","latitude":"-3.1717709","longitude":"107.6825542"},{"name":"LASSAR","latitude":"30.5588642","longitude":"80.2566402"},{"name":"MEMBALONG","latitude":"-3.1318206","longitude":"107.684069"},{"name":"PERPAT","latitude":"-3.0642611","longitude":"107.6455917"},{"name":"SOWAN KIDUL","latitude":"-6.6882214","longitude":"110.6712913"},{"name":"WADAS","latitude":"-7.0560472","longitude":"109.9922418"},{"name":"PENJARINGAN","latitude":"-6.11726515","longitude":"106.76743343432852"},{"name":"GANDARIA UTARA","latitude":"-6.2577702","longitude":"106.7910352"},{"name":"KESUMADADI","latitude":"-5.1077145","longitude":"105.1608375"},{"name":"KENALI BESAR","latitude":"-1.6245759","longitude":"103.550057"},{"name":"SELAT NASIK","latitude":"-2.8338744","longitude":"107.4174285"},{"name":"PETALING","latitude":"3.083333","longitude":"101.583333"},{"name":"CIWARENG","latitude":"-6.5452065","longitude":"107.4356759"},{"name":"SUMUR BATU","latitude":"-6.1636676","longitude":"106.8701023"},{"name":"TANJUNG SARI","latitude":"-2.7413453","longitude":"116.185461"},{"name":"BINONG","latitude":"-6.9367924","longitude":"107.6406075"},{"name":"SUKABUMI UTARA","latitude":"-6.2087582","longitude":"106.7778493"},{"name":"KEBON JERUK","latitude":"-6.19257205","longitude":"106.76972548969255"},{"name":"JELARAI SELOR","latitude":"2.816226","longitude":"117.4048749"},{"name":"TELUK UMA","latitude":"1.0287498","longitude":"103.4088283"},{"name":"CIANTRA","latitude":"-6.3462482","longitude":"107.1105268"},{"name":"PENAGO II","latitude":"-4.2024854","longitude":"102.6780682"},{"name":"PENINJAU","latitude":"4.93938425","longitude":"114.8518768318084"},{"name":"FOGI","latitude":"-2.0975554","longitude":"125.9403195"},{"name":"PULAU SELIU","latitude":"-3.2226473","longitude":"107.53133851449721"},{"name":"TOBAYAGAN","latitude":"0.4409588","longitude":"124.0636063"},{"name":"SERPONG","latitude":"-6.3131287","longitude":"106.68073925095902"},{"name":"KAMPONG DAMAI","latitude":"2.2797417","longitude":"97.859794"},{"name":"JELAMBAR","latitude":"-6.1593443","longitude":"106.7861493"},{"name":"TUGU UTARA","latitude":"-6.6796132","longitude":"106.9787168"},{"name":"PEGANTUNGAN","latitude":"-2.906572","longitude":"107.5659345"},{"name":"CIBOGOR","latitude":"-6.5877013","longitude":"106.7957598"},{"name":"CEMPAKA","latitude":"3.13846545","longitude":"101.75301902132314"},{"name":"LALANG JAYA","latitude":"-2.9278352","longitude":"108.1986082"},{"name":"LOSARI","latitude":"45.3590737","longitude":"13.689489"},{"name":"KARANGJALADRI","latitude":"-7.6853798","longitude":"108.5152417"},{"name":"ABADIJAYA","latitude":"-6.3944219","longitude":"106.8486283"},{"name":"LEUWIMALANG","latitude":"-6.6589795","longitude":"106.9217325"},{"name":"CIPETIR","latitude":"-7.028126","longitude":"108.6024585"},{"name":"CINENGAH","latitude":"-6.9701135","longitude":"107.2932068"},{"name":"PADANG KANDIS","latitude":"-3.1982731","longitude":"107.6177632"},{"name":"BULUH TUMBANG","latitude":"-2.7792371","longitude":"107.7594947"},{"name":"TANJUNG RUSA","latitude":"-3.1523902","longitude":"107.8253499"},{"name":"GUNUNG RITING","latitude":"-3.1649347","longitude":"107.7420951"},{"name":"SAGARANTEN","latitude":"-7.2189901","longitude":"106.8863646"},{"name":"CIPEDAK","latitude":"-6.3518261","longitude":"106.8016288"},{"name":"TEGAL PARANG","latitude":"-6.2489089","longitude":"106.8296061"},{"name":"CUKANG GALIH","latitude":"-6.2454122","longitude":"106.5484376"},{"name":"PURWARAHAYU","latitude":"-7.4299645","longitude":"107.9680966"},{"name":"BURANGKENG","latitude":"-6.3419466","longitude":"107.0367193"},{"name":"GUNUNG SINDUR","latitude":"-6.3902924","longitude":"106.6751906"},{"name":"PONDOK JAYA","latitude":"-6.5474932","longitude":"107.5146566"},{"name":"RAGUNAN","latitude":"-6.2976668","longitude":"106.8204823"},{"name":"SUKANEGARA","latitude":"-6.0706628","longitude":"106.2559031"},{"name":"CICURUG","latitude":"-6.7901119","longitude":"106.77973725038734"},{"name":"PADAASIH","latitude":"-7.2261283","longitude":"107.8020505"},{"name":"SERUA","latitude":"-18.4493218","longitude":"177.91326555"},{"name":"KAYU PUTIH","latitude":"-6.1790057","longitude":"106.8836752"},{"name":"MURBAYA","latitude":"-8.6088282","longitude":"116.2531678"},{"name":"GUNUNG MALANG","latitude":"-7.716667","longitude":"114.016667"},{"name":"KEMANGGISAN","latitude":"-6.1896703","longitude":"106.7908831"},{"name":"ARGOMULYO","latitude":"-7.8136283","longitude":"110.2833855"},{"name":"DEPOK","latitude":"-6.40719","longitude":"106.8158371"},{"name":"SURADITA","latitude":"-6.3504093","longitude":"106.6391801"},{"name":"AEJETI","latitude":"-8.8982738","longitude":"121.526576"},{"name":"KOTA BARU","latitude":"-3.686846","longitude":"104.3160302"},{"name":"PANCORAN","latitude":"-6.2580853","longitude":"106.84273263156662"},{"name":"BOJONG SEMPU","latitude":"-6.4399369","longitude":"106.7105834"},{"name":"PLANGGARAN BARAT","latitude":"-6.9651509","longitude":"113.1713084"},{"name":"BOJONGKERTA","latitude":"-6.9881284","longitude":"106.7395808"},{"name":"MARO","latitude":"-8.4827554","longitude":"140.3981747"},{"name":"CIEMAS","latitude":"-7.1467997","longitude":"106.5423717"},{"name":"PULAU LINTANG","latitude":"-0.983333","longitude":"107.383333"},{"name":"GROGOL UTARA","latitude":"-6.2169919","longitude":"106.7866091"},{"name":"KENANGA","latitude":"-6.1938781","longitude":"106.6859049"},{"name":"BOJONG PONDOK TERONG","latitude":"-6.438995","longitude":"106.8010833"},{"name":"KAJANG BARU","latitude":"-0.0905968","longitude":"111.4787217"},{"name":"CITAYAM","latitude":"-6.4488237","longitude":"106.8023619"},{"name":"CIKEUSIK","latitude":"-6.797308","longitude":"108.2973519"},{"name":"ATANG SENJAYA","latitude":"-6.5387993","longitude":"106.7628527"},{"name":"MULYODADI","latitude":"-7.9428016","longitude":"110.3235773"},{"name":"BONGKI","latitude":"-5.1147618","longitude":"120.2317531"},{"name":"TANJUNG BARAT","latitude":"-6.3084835","longitude":"106.838831"},{"name":"PEMATANG TEBIH","latitude":"0.6352458","longitude":"100.6420949"},{"name":"LAYANA INDAH","latitude":"-0.8602423","longitude":"119.9669074"},{"name":"GURADOG","latitude":"-6.5357779","longitude":"106.3961627"},{"name":"LAWANGGINTUNG","latitude":"-6.626716","longitude":"106.8186995"},{"name":"MUNJUL","latitude":"-6.3478538","longitude":"106.8955892"},{"name":"PULAU PANGGANG","latitude":"-5.7396829","longitude":"106.6022891"},{"name":"KENARI","latitude":"-6.1926888","longitude":"106.8465703"},{"name":"CIGOMBONG","latitude":"-6.745881","longitude":"106.7860725"},{"name":"KOMPA","latitude":"27.08215805","longitude":"90.03767869746349"},{"name":"PONDOK CABE UDIK","latitude":"-6.3530468","longitude":"106.7617027"},{"name":"RANCAMAYA","latitude":"-6.666965","longitude":"106.8309067"},{"name":"TAMPAN","latitude":"0.5182763","longitude":"101.4000595"},{"name":"K R O Y","latitude":"49.199105349999996","longitude":"2.590466350550934"},{"name":"MAUK TIMUR","latitude":"-6.0612062","longitude":"106.50642"},{"name":"TALOK","latitude":"-7.5857021","longitude":"112.4649118"},{"name":"TELAGAMURNI","latitude":"-6.255531","longitude":"107.1211107"},{"name":"PAKANDANGAN TENGAH","latitude":"-7.1136283","longitude":"113.7619479"},{"name":"MUARA RAPAK","latitude":"-1.2269665","longitude":"116.8377002"},{"name":"PORIS PLAWAD INDAH","latitude":"-6.1912337","longitude":"106.6574082"},{"name":"PEMANGKAT","latitude":"1.156069","longitude":"108.97129192715386"},{"name":"PASAR MANGGIS","latitude":"-6.2103818","longitude":"106.8412272"},{"name":"KUALA TAMBANGAN","latitude":"-3.9422468","longitude":"114.6553945"},{"name":"MULYOJATI","latitude":"-5.1308236","longitude":"105.2800185"},{"name":"TAMAN FAJAR","latitude":"5.887604","longitude":"118.0562118"},{"name":"BANJARJO","latitude":"-7.2219663","longitude":"112.04982"},{"name":"KURIK","latitude":"-8.2879617","longitude":"140.2903175"},{"name":"WEDORO","latitude":"-7.3495694","longitude":"112.1362559"},{"name":"BERINGIN MAKMUR I","latitude":"-2.624237","longitude":"103.1198019"},{"name":"KERTAMAYA","latitude":"-6.6529092","longitude":"106.8163417"},{"name":"CURUG WETAN","latitude":"-6.8567326","longitude":"108.6385699"},{"name":"PALASARI","latitude":"-6.9210075","longitude":"107.715662"},{"name":"GINTUNGKERTA","latitude":"-6.3630916","longitude":"107.3439623"},{"name":"KEBON KELAPA","latitude":"-6.1642923","longitude":"106.8247393"},{"name":"CIARUTEN ILIR","latitude":"-6.5599076","longitude":"106.6731381"},{"name":"NGEPEH","latitude":"-8.0649799","longitude":"111.6236898"},{"name":"CIPAGERAN","latitude":"-6.8524177","longitude":"107.5504444"},{"name":"CITEKO","latitude":"-6.6408156","longitude":"107.379894"},{"name":"ARGAPURA","latitude":"-2.5526986","longitude":"140.7140475"},{"name":"CIWARINGIN","latitude":"-6.5778957","longitude":"106.7937243"},{"name":"JONGGRANG","latitude":"-7.5452281","longitude":"111.4393139"},{"name":"NAMBO UDIK","latitude":"-6.2125207","longitude":"106.3158343"},{"name":"PEMATANG PANJANG","latitude":"-3.3725475","longitude":"112.5750276"},{"name":"KAYEN","latitude":"4.9371143","longitude":"-52.3258307"},{"name":"WANAHERANG","latitude":"-6.4234962","longitude":"106.9371649"},{"name":"BALE KAMBANG","latitude":"-6.2807497","longitude":"106.8520631"},{"name":"KAYU MANIS","latitude":"-6.200931","longitude":"106.8620436"},{"name":"CIPINANG","latitude":"-6.2060501","longitude":"106.8926197"},{"name":"CILAME","latitude":"-7.0367693","longitude":"107.4934877"},{"name":"LEUWINUTUG","latitude":"-6.503742","longitude":"106.86770128768129"},{"name":"BOJONGLONGOK","latitude":"-6.8228507","longitude":"106.702764"},{"name":"SENGGURUH","latitude":"-8.1706856","longitude":"112.549542"},{"name":"KALAPANUNGGAL","latitude":"-6.8505608","longitude":"106.6549958"},{"name":"BOJONG KULUR","latitude":"-6.3335422","longitude":"106.9676525"},{"name":"TEGAL PANJANG","latitude":"-6.5256019","longitude":"107.090906"},{"name":"PASIR JAYA","latitude":"-7.0923","longitude":"107.3281"},{"name":"JAYAMULYA","latitude":"-6.4635808","longitude":"107.9967639"},{"name":"SUNGAI DUO","latitude":"-2.4557488","longitude":"102.1200084"},{"name":"SOREANG","latitude":"-7.0268685","longitude":"107.5167964"},{"name":"CITARINGGUL","latitude":"-6.5666006","longitude":"106.853943"},{"name":"CIKADONGDONG","latitude":"-7.5360767","longitude":"108.1222011"},{"name":"TEGALREJO","latitude":"-7.78045495","longitude":"110.355073023502"},{"name":"BORO KULON","latitude":"-7.7377169","longitude":"109.9975843"},{"name":"CIKELAT","latitude":"-6.8951957","longitude":"106.4801668"},{"name":"SURABAYA","latitude":"-7.2459717","longitude":"112.7378266"},{"name":"BAYAH TIMUR","latitude":"-6.8987637","longitude":"106.2911299"},{"name":"PAGERMANEUH","latitude":"-7.2502323","longitude":"107.0958233"},{"name":"UJUNG MENTENG","latitude":"-6.1834535","longitude":"106.9648598"},{"name":"GIRIK","latitude":"-7.2599279","longitude":"112.2045975"},{"name":"KEBON KOSONG","latitude":"-6.156322","longitude":"106.8542865"},{"name":"TEBET TIMUR","latitude":"-6.2328614","longitude":"106.8549546"},{"name":"RAGEMANUNGGAL","latitude":"-6.3898866","longitude":"107.035607"},{"name":"TUGUBANDUNG","latitude":"-6.8315601","longitude":"106.6294356"},{"name":"BANYU RESMI","latitude":"-6.5251185","longitude":"106.5771166"},{"name":"CISARUA","latitude":"-6.70841215","longitude":"106.96227504141362"},{"name":"MAMBURUNGAN TIMUR","latitude":"3.2725333","longitude":"117.6319334"},{"name":"GALUGA","latitude":"-6.6086207","longitude":"106.6531146"},{"name":"WARGAJAYA","latitude":"-6.6273942","longitude":"106.9940965"},{"name":"PALABUHANRATU","latitude":"-6.9882409","longitude":"106.5503728"},{"name":"SEILALE","latitude":"-3.7673361","longitude":"128.119452"},{"name":"HARJOSARI II","latitude":"3.54612585","longitude":"98.69834205087578"},{"name":"JASINGA","latitude":"-6.4771188","longitude":"106.4585225"},{"name":"CIPINANG MUARA","latitude":"-6.2262109","longitude":"106.8881716"},{"name":"MALEER","latitude":"-6.9263733","longitude":"107.6392329"},{"name":"CIGANJUR","latitude":"-6.3355851","longitude":"106.8070616"},{"name":"WERASARI","latitude":"-7.0445615","longitude":"108.2425546"},{"name":"CILEUNGSI KIDUL","latitude":"-6.4306","longitude":"106.9574678"},{"name":"CIPAYUNG GIRANG","latitude":"-6.6429641","longitude":"106.896673"},{"name":"KEDUNGWARU","latitude":"-7.0070188","longitude":"111.2132382"},{"name":"CAHAYA NEGERI","latitude":"-4.8736025","longitude":"104.6891296"},{"name":"RUKTI BASUKI","latitude":"-4.810878","longitude":"105.5203897"},{"name":"KARANGGAYAM","latitude":"-7.4821061","longitude":"108.9897123"},{"name":"KEUTAPANG","latitude":"5.0313993","longitude":"97.2509069"},{"name":"PANYINDANGAN","latitude":"-6.6817342","longitude":"107.9687405"},{"name":"WARUNGBANTEN","latitude":"-6.833354","longitude":"106.3290665"},{"name":"JAMPANG KULON","latitude":"-7.248972","longitude":"106.6259155"},{"name":"TERITIP","latitude":"-1.1434789","longitude":"117.0011929"},{"name":"KARANG TENGAH","latitude":"-6.2179617","longitude":"106.7071278"},{"name":"BLAMBANGAN UMPU","latitude":"-4.5087244","longitude":"104.5127821"},{"name":"KEDOK","latitude":"-8.1488826","longitude":"112.6950919"},{"name":"TALANG PADANG","latitude":"-4.6033286","longitude":"104.1593066"},{"name":"BOJONGGALING","latitude":"-7.0152197","longitude":"106.6581552"},{"name":"LEUWIGAJAH","latitude":"-6.9156924","longitude":"107.5340753"},{"name":"SUKARAYA","latitude":"-6.2291207","longitude":"107.170049"},{"name":"PALMERAH","latitude":"-6.1910017","longitude":"106.7943633086912"},{"name":"CIBURIAL","latitude":"-6.8551793","longitude":"107.6439289"},{"name":"KALONG I","latitude":"-8.6050015","longitude":"119.76870599300864"},{"name":"PADALARANG","latitude":"-6.8423673","longitude":"107.4970415"},{"name":"CIBOGO","latitude":"-6.8895168","longitude":"108.6963654"},{"name":"SIRNAJAYA","latitude":"-7.2810408","longitude":"107.7732859"},{"name":"BUKIT BALING","latitude":"-1.4560996","longitude":"103.5111597"},{"name":"JATIBENING BARU","latitude":"-6.2576916","longitude":"106.9279362"},{"name":"SUMBERGEDONG","latitude":"-8.0516093","longitude":"111.709913"},{"name":"PONDOK BENDA","latitude":"-6.3455708","longitude":"106.7143496"},{"name":"RAWAKALONG","latitude":"-6.3715349","longitude":"106.7120399"},{"name":"GUNUNG ENDUT","latitude":"-6.488611","longitude":"106.575278"},{"name":"GEGERBITUNG","latitude":"-6.9921336","longitude":"107.0167063"},{"name":"TANJUNG PINANG","latitude":"-4.6911349","longitude":"122.5939992"},{"name":"SUKARAJA KULON","latitude":"-6.7758017","longitude":"108.2662666"},{"name":"SUMBER MULYA","latitude":"-8.2205077","longitude":"140.2143146"},{"name":"LEBAKWANA","latitude":"-6.0741965","longitude":"106.1040546"},{"name":"CITEPUS","latitude":"-6.9714965","longitude":"106.5657816"},{"name":"KEDUNGJERUK","latitude":"-7.5166706","longitude":"110.9776317"},{"name":"REJAMULYA","latitude":"-7.4798397","longitude":"108.7388591"},{"name":"MANEMBO-NEMBO TENGAH","latitude":"1.4192857","longitude":"125.0974464"},{"name":"RAWA BURUNG","latitude":"-6.1039215","longitude":"106.6637136"},{"name":"JATIRADEN","latitude":"-6.354292","longitude":"106.9220483"},{"name":"CISAYONG","latitude":"-7.2559484","longitude":"108.1249764"},{"name":"CILEUKSA","latitude":"-6.5793238","longitude":"106.4427598"},{"name":"GURABESI","latitude":"-2.547561","longitude":"140.6928094"},{"name":"PANGGUNG KIDUL","latitude":"-6.9657683","longitude":"110.4063427"},{"name":"BANYUANYAR","latitude":"-7.8597364","longitude":"113.2992071"},{"name":"KOKAS KOTA","latitude":"-2.7012517","longitude":"132.4364963"},{"name":"KIRIA BISA","latitude":"-3.1799426","longitude":"132.6181144"},{"name":"CIBARUSAHJAYA","latitude":"-6.4242787","longitude":"107.0798414"},{"name":"CINAGARA","latitude":"-7.1068874","longitude":"108.0820159"},{"name":"LIMUS NUNGGAL","latitude":"-6.3942288","longitude":"106.9609963"},{"name":"AIRLANGGA","latitude":"-7.2728763","longitude":"112.7573363"},{"name":"CIBEBER II","latitude":"-6.5872833","longitude":"106.6238826"},{"name":"PASIR LOR","latitude":"-7.4079229","longitude":"109.2025915"},{"name":"BUKIT LAMA","latitude":"3.0605827000000003","longitude":"101.63537283247929"},{"name":"LEBAK BULUS","latitude":"-6.3016717","longitude":"106.779691"},{"name":"CILEULEUY","latitude":"-6.9702021","longitude":"108.4502956"},{"name":"NEGERI AGUNG","latitude":"-3.6571553","longitude":"104.224975"},{"name":"BERHALA","latitude":"2.9891153","longitude":"105.697649"},{"name":"SOA LAIPOH","latitude":"0.8343422","longitude":"128.1717794"},{"name":"ROHAYU","latitude":"-7.0900777","longitude":"113.2713173"},{"name":"TAPOS 1","latitude":"-6.6764919","longitude":"106.7087304"},{"name":"KARAWACI BARU","latitude":"-6.2038296","longitude":"106.6134741"},{"name":"MANGUNJAYA","latitude":"-6.4060871","longitude":"107.911254"},{"name":"KERTAJAYA","latitude":"-7.2824513","longitude":"112.7550734"},{"name":"STADION","latitude":"37.847734700000004","longitude":"27.518977039387238"},{"name":"PUTAT NUTUG","latitude":"-6.4695228","longitude":"106.6798801"},{"name":"CINTALANGGENG","latitude":"-6.5041362","longitude":"107.2390135"},{"name":"BOJONGSARI LAMA","latitude":"-6.3968486","longitude":"106.7447831"},{"name":"COT BA'U","latitude":"5.8580595","longitude":"95.3443006"},{"name":"BATU BALANG","latitude":"-0.1697162","longitude":"100.7021154"},{"name":"KOTA BAMBU SELATAN","latitude":"-6.1875027","longitude":"106.8035245"},{"name":"SINGAJAYA","latitude":"-7.4993916","longitude":"108.1854272"},{"name":"BENDA BARU","latitude":"-6.3375084","longitude":"106.7192658"},{"name":"KARANGTENGAH","latitude":"-7.930252100000001","longitude":"110.61321807668546"},{"name":"SUKAKARSA","latitude":"-7.3575266","longitude":"108.1579716"},{"name":"CIBEBER","latitude":"-6.901997","longitude":"107.5261687"},{"name":"BONDONGAN","latitude":"-6.6168431","longitude":"106.8073842"},{"name":"KARTASANA","latitude":"-6.426539","longitude":"105.8652353"},{"name":"TALAGA","latitude":"3.3609275","longitude":"-76.16255739572635"},{"name":"BOJONGSARI BARU","latitude":"-6.387645","longitude":"106.7440504"},{"name":"CICAREUH","latitude":"-6.8997744","longitude":"106.6864645"},{"name":"WIYUNG","latitude":"-7.3085679","longitude":"112.69331431558425"},{"name":"PAJAWANLOR","latitude":"-6.9876472","longitude":"108.5781108"},{"name":"RANCAMULYA","latitude":"-6.4584053","longitude":"108.07625"},{"name":"CIBADUNG","latitude":"-6.4091871","longitude":"106.6826521"},{"name":"LENGKONG KARYA","latitude":"-6.2773487","longitude":"106.6588838"},{"name":"TANJUNG RAJA","latitude":"-3.7055972","longitude":"103.7990063"},{"name":"SINDANGLAYA","latitude":"-6.8890554","longitude":"107.6849271"},{"name":"GUDANG","latitude":"-2.5406371","longitude":"121.9636792"},{"name":"SUBIK","latitude":"-4.9736126","longitude":"104.7556382"},{"name":"RAJABASA RAYA","latitude":"-5.3608606","longitude":"105.2336184"},{"name":"HAURGAJRUG","latitude":"-6.5175762","longitude":"106.3637043"},{"name":"SAOK LAWEH","latitude":"-0.7833065","longitude":"100.6824429"},{"name":"BALANGKA","latitude":"1.4384274","longitude":"99.7860652"},{"name":"CIJALINGAN","latitude":"-6.8775174","longitude":"106.8506403"},{"name":"PAGEDANGAN","latitude":"-6.297757","longitude":"106.62415778816103"},{"name":"PETAMBURAN","latitude":"-6.1953983","longitude":"106.8068864"},{"name":"SIRAMAN","latitude":"-7.97464555","longitude":"110.58600713180394"},{"name":"SEPATNUNGGAL","latitude":"-7.2353797","longitude":"108.7446421"},{"name":"SEI BULAN","latitude":"0.9551583","longitude":"109.0276966"},{"name":"CIDOLOG","latitude":"-7.3163491","longitude":"106.8375349"},{"name":"CIANGSANA","latitude":"-6.3681268","longitude":"106.9517499"},{"name":"KOJA","latitude":"-6.12074995","longitude":"106.9073669077304"},{"name":"BANGBAYANG","latitude":"-7.2197825","longitude":"108.3378703"},{"name":"TELAJUNG","latitude":"-6.3307255","longitude":"107.0688252"},{"name":"AIR JAMBAN","latitude":"1.2169606","longitude":"101.118308"},{"name":"BANSIR DARAT","latitude":"-0.0769042","longitude":"109.3375682"},{"name":"TULUNGAGUNG","latitude":"-8.07290355","longitude":"111.89964078880708"},{"name":"SAGU","latitude":"60.3432104","longitude":"22.6943202"},{"name":"CIMANDE","latitude":"-6.7206498","longitude":"106.8623279"},{"name":"BULIANG","latitude":"23.2100026","longitude":"107.50149264219354"},{"name":"KAMPUNG SAWAH","latitude":"2.6250175","longitude":"101.7604941"},{"name":"JAGAN","latitude":"26.7071014","longitude":"95.3596134"},{"name":"JUGALA JAYA","latitude":"-6.5162178","longitude":"106.4587122"},{"name":"WALURAN","latitude":"-7.1825446","longitude":"106.6146978"},{"name":"PURWAKARTA","latitude":"-6.5607313","longitude":"107.4439799"},{"name":"BATU AMPAR","latitude":"4.7807606","longitude":"114.8212282"},{"name":"TELAGA","latitude":"0.730556","longitude":"124.623056"},{"name":"KASTURI","latitude":"23.24357885","longitude":"80.64537390298412"},{"name":"SARUA INDAH","latitude":"-6.3041999","longitude":"106.7275875"},{"name":"KOTO PETAI","latitude":"-2.469499","longitude":"101.2521223"},{"name":"SUKARUKUN","latitude":"-6.2221321","longitude":"107.1559349"},{"name":"PANGAUR","latitude":"-6.4142614","longitude":"106.4712942"},{"name":"RAHANDOUNA","latitude":"-4.0133864","longitude":"122.5529924"},{"name":"DUKUHKARYA","latitude":"-6.1818101","longitude":"107.3061837"},{"name":"CARIU","latitude":"-6.5351046","longitude":"107.1071616"},{"name":"SIDOKUMPUL","latitude":"-7.3110533","longitude":"112.2245411"},{"name":"AREN JAYA","latitude":"-6.2412765","longitude":"107.0379752"},{"name":"WARINGINKURUNG","latitude":"-6.0607207","longitude":"106.0644076"},{"name":"LOHBENER","latitude":"-6.4007075","longitude":"108.2806903"},{"name":"SEPINGGAN RAYA","latitude":"-1.2576129","longitude":"116.8956141"},{"name":"BUNTU MARAJA","latitude":"2.7276922","longitude":"99.4362391"},{"name":"CAKUNG BARAT","latitude":"-6.173369","longitude":"106.9358048"},{"name":"WANAJAYA","latitude":"-7.1743705","longitude":"108.0044791"},{"name":"CIBURAYUT","latitude":"-6.7231699","longitude":"106.7803932"},{"name":"KALIGONDANG","latitude":"-7.3792386","longitude":"109.4096025"},{"name":"KARYA MEKAR","latitude":"-6.5785972","longitude":"107.0768007"}]